$GPRMC,192155.382,V,4154.929,N,07802.496,W,42.0,1.15,060518,,E*48
$GPGGA,192156.382,4154.929,N,07802.496,W,0,00,,,M,,M,,*50
$GPGLL,4154.929,N,07802.496,W,192157.382,V*31
$GPRMC,192158.382,V,4154.929,N,07802.494,W,22.2,1.21,060518,,E*44
$GPGGA,192159.382,4154.929,N,07802.494,W,0,00,,,M,,M,,*5D
$GPGLL,4154.929,N,07802.494,W,192200.382,V*32
$GPRMC,192201.382,V,4154.928,N,07802.492,W,5.2,1.34,060518,,E*7D
$GPGGA,192202.382,4154.928,N,07802.492,W,0,00,,,M,,M,,*57
$GPGLL,4154.928,N,07802.492,W,192203.382,V*36
$GPRMC,192204.382,V,4154.927,N,07802.491,W,72.2,1.42,060518,,E*45
$GPGGA,192205.382,4154.927,N,07802.491,W,0,00,,,M,,M,,*5C
$GPGLL,4154.927,N,07802.491,W,192206.382,V*3F
$GPRMC,192207.382,V,4154.926,N,07802.489,W,7.2,1.44,060518,,E*7A
$GPGGA,192208.382,4154.926,N,07802.489,W,0,00,,,M,,M,,*59
$GPGLL,4154.926,N,07802.489,W,192209.382,V*38
$GPRMC,192210.382,V,4154.924,N,07802.488,W,80.3,1.46,060518,,E*43
$GPGGA,192211.382,4154.924,N,07802.488,W,0,00,,,M,,M,,*52
$GPGLL,4154.924,N,07802.488,W,192212.382,V*31
$GPRMC,192213.382,V,4154.923,N,07802.487,W,6.8,1.38,060518,,E*74
$GPGGA,192214.382,4154.923,N,07802.487,W,0,00,,,M,,M,,*5F
$GPGLL,4154.923,N,07802.487,W,192215.382,V*3E
$GPRMC,192216.382,V,4154.922,N,07802.485,W,57.0,1.37,060518,,E*41
$GPGGA,192217.382,4154.922,N,07802.485,W,0,00,,,M,,M,,*5F
$GPGLL,4154.922,N,07802.485,W,192218.382,V*30
$GPRMC,192219.382,V,4154.921,N,07802.484,W,27.8,1.33,060518,,E*47
$GPGGA,192220.382,4154.921,N,07802.484,W,0,00,,,M,,M,,*59
$GPGLL,4154.921,N,07802.484,W,192221.382,V*38
$GPRMC,192222.382,V,4154.920,N,07802.482,W,63.5,1.39,060518,,E*4F
$GPGGA,192223.382,4154.920,N,07802.482,W,0,00,,,M,,M,,*5D
$GPGLL,4154.920,N,07802.482,W,192224.382,V*3A
$GPRMC,192225.382,V,4154.919,N,07802.481,W,48.7,1.38,060518,,E*4B
$GPGGA,192226.382,4154.919,N,07802.481,W,0,00,,,M,,M,,*51
$GPGLL,4154.919,N,07802.481,W,192227.382,V*30
$GPRMC,192228.382,V,4154.918,N,07802.479,W,77.4,1.45,060518,,E*45
$GPGGA,192229.382,4154.918,N,07802.479,W,0,00,,,M,,M,,*58
$GPGLL,4154.918,N,07802.479,W,192230.382,V*30
$GPRMC,192231.382,V,4154.917,N,07802.478,W,21.4,1.35,060518,,E*47
$GPGGA,192232.382,4154.917,N,07802.478,W,0,00,,,M,,M,,*5C
$GPGLL,4154.917,N,07802.478,W,192233.382,V*3D
$GPRMC,192234.382,V,4154.916,N,07802.476,W,63.7,1.41,060518,,E*4B
$GPGGA,192235.382,4154.916,N,07802.476,W,0,00,,,M,,M,,*54
$GPGLL,4154.916,N,07802.476,W,192236.382,V*37
$GPRMC,192237.382,V,4154.915,N,07802.475,W,67.1,1.51,060518,,E*4B
$GPGGA,192238.382,4154.915,N,07802.475,W,0,00,,,M,,M,,*59
$GPGLL,4154.915,N,07802.475,W,192239.382,V*38
$GPRMC,192240.382,V,4154.914,N,07802.474,W,58.9,1.47,060518,,E*48
$GPGGA,192241.382,4154.914,N,07802.474,W,0,00,,,M,,M,,*57
$GPGLL,4154.914,N,07802.474,W,192242.382,V*34
$GPRMC,192243.382,V,4154.913,N,07802.472,W,20.8,1.40,060518,,E*43
$GPGGA,192244.382,4154.913,N,07802.472,W,0,00,,,M,,M,,*53
$GPGLL,4154.913,N,07802.472,W,192245.382,V*32
$GPRMC,192246.382,V,4154.912,N,07802.471,W,87.3,1.38,060518,,E*4D
$GPGGA,192247.382,4154.912,N,07802.471,W,0,00,,,M,,M,,*52
$GPGLL,4154.912,N,07802.471,W,192248.382,V*3D
$GPRMC,192249.382,V,4154.911,N,07802.469,W,22.3,1.28,060518,,E*46
$GPGGA,192250.382,4154.911,N,07802.469,W,0,00,,,M,,M,,*5E
$GPGLL,4154.911,N,07802.469,W,192251.382,V*3F
$GPRMC,192252.382,V,4154.910,N,07802.467,W,64.8,1.17,060518,,E*46
$GPGGA,192253.382,4154.910,N,07802.467,W,0,00,,,M,,M,,*52
$GPGLL,4154.910,N,07802.467,W,192254.382,V*35
$GPRMC,192255.382,V,4154.910,N,07802.466,W,98.3,1.12,060518,,E*4D
$GPGGA,192256.382,4154.910,N,07802.466,W,0,00,,,M,,M,,*56
$GPGLL,4154.910,N,07802.466,W,192257.382,V*37
$GPRMC,192258.382,V,4154.910,N,07802.464,W,25.1,1.12,060518,,E*46
$GPGGA,192259.382,4154.910,N,07802.464,W,0,00,,,M,,M,,*5B
$GPGLL,4154.910,N,07802.464,W,192300.382,V*36
$GPRMC,192301.382,V,4154.909,N,07802.462,W,65.1,1.22,060518,,E*42
$GPGGA,192302.382,4154.909,N,07802.462,W,0,00,,,M,,M,,*5A
$GPGLL,4154.909,N,07802.462,W,192303.382,V*3B
$GPRMC,192304.382,V,4154.909,N,07802.460,W,88.3,1.22,060518,,E*44
$GPGGA,192305.382,4154.909,N,07802.460,W,0,00,,,M,,M,,*5F
$GPGLL,4154.909,N,07802.460,W,192306.382,V*3C
$GPRMC,192307.382,V,4154.907,N,07802.460,W,25.5,1.69,060518,,E*47
$GPGGA,192308.382,4154.907,N,07802.460,W,0,00,,,M,,M,,*5C
$GPGLL,4154.907,N,07802.460,W,192309.382,V*3D
$GPRMC,192310.382,V,4154.905,N,07802.459,W,49.5,1.76,060518,,E*4D
$GPGGA,192311.382,4154.905,N,07802.459,W,0,00,,,M,,M,,*5C
$GPGLL,4154.905,N,07802.459,W,192312.382,V*3F
$GPRMC,192313.382,V,4154.904,N,07802.458,W,27.2,1.69,060518,,E*4F
$GPGGA,192314.382,4154.904,N,07802.458,W,0,00,,,M,,M,,*59
$GPGLL,4154.904,N,07802.458,W,192315.382,V*38
$GPRMC,192316.382,V,4154.902,N,07802.457,W,7.6,1.74,060518,,E*79
$GPGGA,192317.382,4154.902,N,07802.457,W,0,00,,,M,,M,,*53
$GPGLL,4154.902,N,07802.457,W,192318.382,V*3C
$GPRMC,192319.382,V,4154.900,N,07802.456,W,32.8,1.63,060518,,E*4B
$GPGGA,192320.382,4154.900,N,07802.456,W,0,00,,,M,,M,,*54
$GPGLL,4154.900,N,07802.456,W,192321.382,V*35
$GPRMC,192322.382,V,4154.899,N,07802.456,W,20.9,1.70,060518,,E*42
$GPGGA,192323.382,4154.899,N,07802.456,W,0,00,,,M,,M,,*56
$GPGLL,4154.899,N,07802.456,W,192324.382,V*31
$GPRMC,192325.382,V,4154.897,N,07802.455,W,44.4,1.64,060518,,E*42
$GPGGA,192326.382,4154.897,N,07802.455,W,0,00,,,M,,M,,*5E
$GPGLL,4154.897,N,07802.455,W,192327.382,V*3F
$GPRMC,192328.382,V,4154.897,N,07802.453,W,24.0,1.24,060518,,E*4F
$GPGGA,192329.382,4154.897,N,07802.453,W,0,00,,,M,,M,,*57
$GPGLL,4154.897,N,07802.453,W,192330.382,V*3F
$GPRMC,192331.382,V,4154.896,N,07802.451,W,34.2,1.21,060518,,E*42
$GPGGA,192332.382,4154.896,N,07802.451,W,0,00,,,M,,M,,*5E
$GPGLL,4154.896,N,07802.451,W,192333.382,V*3F
$GPRMC,192334.382,V,4154.895,N,07802.450,W,32.7,1.29,060518,,E*4E
$GPGGA,192335.382,4154.895,N,07802.450,W,0,00,,,M,,M,,*5B
$GPGLL,4154.895,N,07802.450,W,192336.382,V*38
$GPRMC,192337.382,V,4154.895,N,07802.448,W,60.2,1.28,060518,,E*47
$GPGGA,192338.382,4154.895,N,07802.448,W,0,00,,,M,,M,,*5F
$GPGLL,4154.895,N,07802.448,W,192339.382,V*3E
$GPRMC,192340.382,V,4154.894,N,07802.446,W,35.8,1.32,060518,,E*49
$GPGGA,192341.382,4154.894,N,07802.446,W,0,00,,,M,,M,,*5E
$GPGLL,4154.894,N,07802.446,W,192342.382,V*3D
$GPRMC,192343.382,V,4154.893,N,07802.445,W,35.1,1.37,060518,,E*42
$GPGGA,192344.382,4154.893,N,07802.445,W,0,00,,,M,,M,,*5F
$GPGLL,4154.893,N,07802.445,W,192345.382,V*3E
$GPRMC,192346.382,V,4154.891,N,07802.444,W,57.2,1.47,060518,,E*44
$GPGGA,192347.382,4154.891,N,07802.444,W,0,00,,,M,,M,,*5F
$GPGLL,4154.891,N,07802.444,W,192348.382,V*30
$GPRMC,192349.382,V,4154.890,N,07802.442,W,93.7,1.39,060518,,E*48
$GPGGA,192350.382,4154.890,N,07802.442,W,0,00,,,M,,M,,*5E
$GPGLL,4154.890,N,07802.442,W,192351.382,V*3F
$GPRMC,192352.382,V,4154.890,N,07802.441,W,65.2,1.29,060518,,E*4C
$GPGGA,192353.382,4154.890,N,07802.441,W,0,00,,,M,,M,,*5E
$GPGLL,4154.890,N,07802.441,W,192354.382,V*39
$GPRMC,192355.382,V,4154.889,N,07802.439,W,37.2,1.20,060518,,E*42
$GPGGA,192356.382,4154.889,N,07802.439,W,0,00,,,M,,M,,*5C
$GPGLL,4154.889,N,07802.439,W,192357.382,V*3D
$GPRMC,192358.382,V,4154.888,N,07802.437,W,33.7,1.24,060518,,E*45
$GPGGA,192359.382,4154.888,N,07802.437,W,0,00,,,M,,M,,*5C
$GPGLL,4154.888,N,07802.437,W,192400.382,V*37
$GPRMC,192401.382,V,4154.887,N,07802.436,W,94.5,1.67,060518,,E*48
$GPGGA,192402.382,4154.887,N,07802.436,W,0,00,,,M,,M,,*5B
$GPGLL,4154.887,N,07802.436,W,192403.382,V*3A
$GPRMC,192404.382,V,4154.885,N,07802.435,W,84.3,1.60,060518,,E*4C
$GPGGA,192405.382,4154.885,N,07802.435,W,0,00,,,M,,M,,*5D
$GPGLL,4154.885,N,07802.435,W,192406.382,V*3E
$GPRMC,192407.382,V,4154.884,N,07802.434,W,37.9,1.57,060518,,E*49
$GPGGA,192408.382,4154.884,N,07802.434,W,0,00,,,M,,M,,*50
$GPGLL,4154.884,N,07802.434,W,192409.382,V*31
$GPRMC,192410.382,V,4154.884,N,07802.432,W,91.9,1.10,060518,,E*46
$GPGGA,192411.382,4154.884,N,07802.432,W,0,00,,,M,,M,,*5E
$GPGLL,4154.884,N,07802.432,W,192412.382,V*3D
$GPRMC,192413.382,V,4154.884,N,07802.430,W,32.2,1.04,060518,,E*40
$GPGGA,192414.382,4154.884,N,07802.430,W,0,00,,,M,,M,,*59
$GPGLL,4154.884,N,07802.430,W,192415.382,V*38
$GPRMC,192416.382,V,4154.883,N,07802.429,W,72.0,1.13,060518,,E*4A
$GPGGA,192417.382,4154.883,N,07802.429,W,0,00,,,M,,M,,*55
$GPGLL,4154.883,N,07802.429,W,192418.382,V*3A
$GPRMC,192419.382,V,4154.883,N,07802.427,W,34.8,1.22,060518,,E*43
$GPGGA,192420.382,4154.883,N,07802.427,W,0,00,,,M,,M,,*5F
$GPGLL,4154.883,N,07802.427,W,192421.382,V*3E
$GPRMC,192422.382,V,4154.882,N,07802.425,W,61.0,1.17,060518,,E*46
$GPGGA,192423.382,4154.882,N,07802.425,W,0,00,,,M,,M,,*5F
$GPGLL,4154.882,N,07802.425,W,192424.382,V*38
$GPRMC,192425.382,V,4154.882,N,07802.424,W,22.0,1.23,060518,,E*40
$GPGGA,192426.382,4154.882,N,07802.424,W,0,00,,,M,,M,,*5B
$GPGLL,4154.882,N,07802.424,W,192427.382,V*3A
$GPRMC,192428.382,V,4154.881,N,07802.422,W,86.2,1.15,060518,,E*41
$GPGGA,192429.382,4154.881,N,07802.422,W,0,00,,,M,,M,,*51
$GPGLL,4154.881,N,07802.422,W,192430.382,V*39
$GPRMC,192431.382,V,4154.881,N,07802.420,W,50.9,1.11,060518,,E*4F
$GPGGA,192432.382,4154.881,N,07802.420,W,0,00,,,M,,M,,*59
$GPGLL,4154.881,N,07802.420,W,192433.382,V*38
$GPRMC,192434.382,V,4154.881,N,07802.418,W,93.7,1.03,060518,,E*43
$GPGGA,192435.382,4154.881,N,07802.418,W,0,00,,,M,,M,,*55
$GPGLL,4154.881,N,07802.418,W,192436.382,V*36
$GPRMC,192437.382,V,4154.882,N,07802.417,W,55.8,0.68,060518,,E*45
$GPGGA,192438.382,4154.882,N,07802.417,W,0,00,,,M,,M,,*54
$GPGLL,4154.882,N,07802.417,W,192439.382,V*35
$GPRMC,192440.382,V,4154.882,N,07802.415,W,14.4,0.69,060518,,E*4F
$GPGGA,192441.382,4154.882,N,07802.415,W,0,00,,,M,,M,,*58
$GPGLL,4154.882,N,07802.415,W,192442.382,V*3B
$GPRMC,192443.382,V,4154.883,N,07802.414,W,18.7,0.65,060518,,E*4F
$GPGGA,192444.382,4154.883,N,07802.414,W,0,00,,,M,,M,,*5D
$GPGLL,4154.883,N,07802.414,W,192445.382,V*3C
$GPRMC,192446.382,V,4154.884,N,07802.412,W,98.3,0.73,060518,,E*40
$GPGGA,192447.382,4154.884,N,07802.412,W,0,00,,,M,,M,,*5F
$GPGLL,4154.884,N,07802.412,W,192448.382,V*30
$GPRMC,192449.382,V,4154.885,N,07802.410,W,3.7,0.83,060518,,E*75
$GPGGA,192450.382,4154.885,N,07802.410,W,0,00,,,M,,M,,*5A
$GPGLL,4154.885,N,07802.410,W,192451.382,V*3B
$GPRMC,192452.382,V,4154.885,N,07802.408,W,5.7,0.82,060518,,E*71
$GPGGA,192453.382,4154.885,N,07802.408,W,0,00,,,M,,M,,*50
$GPGLL,4154.885,N,07802.408,W,192454.382,V*37
$GPRMC,192455.382,V,4154.886,N,07802.407,W,24.9,0.79,060518,,E*43
$GPGGA,192456.382,4154.886,N,07802.407,W,0,00,,,M,,M,,*59
$GPGLL,4154.886,N,07802.407,W,192457.382,V*38
$GPRMC,192458.382,V,4154.886,N,07802.405,W,21.1,0.71,060518,,E*49
$GPGGA,192459.382,4154.886,N,07802.405,W,0,00,,,M,,M,,*54
$GPGLL,4154.886,N,07802.405,W,192500.382,V*39
$GPRMC,192501.382,V,4154.887,N,07802.404,W,15.7,0.63,060518,,E*46
$GPGGA,192502.382,4154.887,N,07802.404,W,0,00,,,M,,M,,*5B
$GPGLL,4154.887,N,07802.404,W,192503.382,V*3A
$GPRMC,192504.382,V,4154.888,N,07802.402,W,83.2,0.68,060518,,E*4B
$GPGGA,192505.382,4154.888,N,07802.402,W,0,00,,,M,,M,,*55
$GPGLL,4154.888,N,07802.402,W,192506.382,V*36
$GPRMC,192507.382,V,4154.889,N,07802.401,W,35.6,0.65,060518,,E*4E
$GPGGA,192508.382,4154.889,N,07802.401,W,0,00,,,M,,M,,*5A
$GPGLL,4154.889,N,07802.401,W,192509.382,V*3B
$GPRMC,192510.382,V,4154.890,N,07802.399,W,99.2,0.71,060518,,E*41
$GPGGA,192511.382,4154.890,N,07802.399,W,0,00,,,M,,M,,*5C
$GPGLL,4154.890,N,07802.399,W,192512.382,V*3F
$GPRMC,192513.382,V,4154.891,N,07802.397,W,26.3,0.72,060518,,E*4B
$GPGGA,192514.382,4154.891,N,07802.397,W,0,00,,,M,,M,,*56
$GPGLL,4154.891,N,07802.397,W,192515.382,V*37
$GPRMC,192516.382,V,4154.891,N,07802.396,W,33.3,0.82,060518,,E*44
$GPGGA,192517.382,4154.891,N,07802.396,W,0,00,,,M,,M,,*54
$GPGLL,4154.891,N,07802.396,W,192518.382,V*3B
$GPRMC,192519.382,V,4154.892,N,07802.394,W,26.1,0.72,060518,,E*43
$GPGGA,192520.382,4154.892,N,07802.394,W,0,00,,,M,,M,,*51
$GPGLL,4154.892,N,07802.394,W,192521.382,V*30
$GPRMC,192522.382,V,4154.893,N,07802.392,W,67.5,0.68,060518,,E*46
$GPGGA,192523.382,4154.893,N,07802.392,W,0,00,,,M,,M,,*55
$GPGLL,4154.893,N,07802.392,W,192524.382,V*32
$GPRMC,192525.382,V,4154.894,N,07802.391,W,38.7,0.77,060518,,E*43
$GPGGA,192526.382,4154.894,N,07802.391,W,0,00,,,M,,M,,*54
$GPGLL,4154.894,N,07802.391,W,192527.382,V*35
$GPRMC,192528.382,V,4154.894,N,07802.389,W,46.9,0.87,060518,,E*4F
$GPGGA,192529.382,4154.894,N,07802.389,W,0,00,,,M,,M,,*52
$GPGLL,4154.894,N,07802.389,W,192530.382,V*3A
$GPRMC,192531.382,V,4154.894,N,07802.387,W,91.0,0.93,060518,,E*4F
$GPGGA,192532.382,4154.894,N,07802.387,W,0,00,,,M,,M,,*56
$GPGLL,4154.894,N,07802.387,W,192533.382,V*37
$GPRMC,192534.382,V,4154.893,N,07802.386,W,5.3,1.36,060518,,E*7C
$GPGGA,192535.382,4154.893,N,07802.386,W,0,00,,,M,,M,,*57
$GPGLL,4154.893,N,07802.386,W,192536.382,V*34
$GPRMC,192537.382,V,4154.892,N,07802.384,W,81.9,1.46,060518,,E*4D
$GPGGA,192538.382,4154.892,N,07802.384,W,0,00,,,M,,M,,*59
$GPGLL,4154.892,N,07802.384,W,192539.382,V*38
$GPRMC,192540.382,V,4154.891,N,07802.383,W,19.7,1.51,060518,,E*40
$GPGGA,192541.382,4154.891,N,07802.383,W,0,00,,,M,,M,,*53
$GPGLL,4154.891,N,07802.383,W,192542.382,V*30
$GPRMC,192543.382,V,4154.889,N,07802.382,W,63.5,1.49,060518,,E*4D
$GPGGA,192544.382,4154.889,N,07802.382,W,0,00,,,M,,M,,*5E
$GPGLL,4154.889,N,07802.382,W,192545.382,V*3F
$GPRMC,192546.382,V,4154.888,N,07802.380,W,62.7,1.50,060518,,E*40
$GPGGA,192547.382,4154.888,N,07802.380,W,0,00,,,M,,M,,*5E
$GPGLL,4154.888,N,07802.380,W,192548.382,V*31
$GPRMC,192549.382,V,4154.887,N,07802.379,W,33.6,1.56,060518,,E*45
$GPGGA,192550.382,4154.887,N,07802.379,W,0,00,,,M,,M,,*51
$GPGLL,4154.887,N,07802.379,W,192551.382,V*30
$GPRMC,192552.382,V,4154.886,N,07802.378,W,15.1,1.46,060518,,E*4D
$GPGGA,192553.382,4154.886,N,07802.378,W,0,00,,,M,,M,,*52
$GPGLL,4154.886,N,07802.378,W,192554.382,V*35
$GPRMC,192555.382,V,4154.884,N,07802.377,W,5.7,1.50,060518,,E*77
$GPGGA,192556.382,4154.884,N,07802.377,W,0,00,,,M,,M,,*5A
$GPGLL,4154.884,N,07802.377,W,192557.382,V*3B
$GPRMC,192558.382,V,4154.883,N,07802.375,W,64.0,1.49,060518,,E*47
$GPGGA,192559.382,4154.883,N,07802.375,W,0,00,,,M,,M,,*50
$GPGLL,4154.883,N,07802.375,W,192600.382,V*3F
$GPRMC,192601.382,V,4154.882,N,07802.374,W,26.0,1.49,060518,,E*4E
$GPGGA,192602.382,4154.882,N,07802.374,W,0,00,,,M,,M,,*5D
$GPGLL,4154.882,N,07802.374,W,192603.382,V*3C
$GPRMC,192604.382,V,4154.881,N,07802.373,W,43.1,1.41,060518,,E*45
$GPGGA,192605.382,4154.881,N,07802.373,W,0,00,,,M,,M,,*5E
$GPGLL,4154.881,N,07802.373,W,192606.382,V*3D
$GPRMC,192607.382,V,4154.880,N,07802.371,W,45.7,1.37,060518,,E*44
$GPGGA,192608.382,4154.880,N,07802.371,W,0,00,,,M,,M,,*50
$GPGLL,4154.880,N,07802.371,W,192609.382,V*31
$GPRMC,192610.382,V,4154.879,N,07802.370,W,81.2,1.40,060518,,E*48
$GPGGA,192611.382,4154.879,N,07802.370,W,0,00,,,M,,M,,*5F
$GPGLL,4154.879,N,07802.370,W,192612.382,V*3C
$GPRMC,192613.382,V,4154.878,N,07802.368,W,54.3,1.30,060518,,E*4D
$GPGGA,192614.382,4154.878,N,07802.368,W,0,00,,,M,,M,,*52
$GPGLL,4154.878,N,07802.368,W,192615.382,V*33
$GPRMC,192616.382,V,4154.877,N,07802.366,W,39.2,1.34,060518,,E*47
$GPGGA,192617.382,4154.877,N,07802.366,W,0,00,,,M,,M,,*50
$GPGLL,4154.877,N,07802.366,W,192618.382,V*3F
$GPRMC,192619.382,V,4154.876,N,07802.365,W,41.1,1.33,060518,,E*41
$GPGGA,192620.382,4154.876,N,07802.365,W,0,00,,,M,,M,,*56
$GPGLL,4154.876,N,07802.365,W,192621.382,V*37
$GPRMC,192622.382,V,4154.875,N,07802.363,W,85.6,1.38,060518,,E*48
$GPGGA,192623.382,4154.875,N,07802.363,W,0,00,,,M,,M,,*50
$GPGLL,4154.875,N,07802.363,W,192624.382,V*37
$GPRMC,192625.382,V,4154.874,N,07802.362,W,90.0,1.29,060518,,E*4D
$GPGGA,192626.382,4154.874,N,07802.362,W,0,00,,,M,,M,,*55
$GPGLL,4154.874,N,07802.362,W,192627.382,V*34
$GPRMC,192628.382,V,4154.874,N,07802.360,W,12.6,1.27,060518,,E*40
$GPGGA,192629.382,4154.874,N,07802.360,W,0,00,,,M,,M,,*58
$GPGLL,4154.874,N,07802.360,W,192630.382,V*30
$GPRMC,192631.382,V,4154.873,N,07802.359,W,22.6,1.29,060518,,E*48
$GPGGA,192632.382,4154.873,N,07802.359,W,0,00,,,M,,M,,*5F
$GPGLL,4154.873,N,07802.359,W,192633.382,V*3E
$GPRMC,192634.382,V,4154.872,N,07802.357,W,25.9,1.39,060518,,E*4B
$GPGGA,192635.382,4154.872,N,07802.357,W,0,00,,,M,,M,,*57
$GPGLL,4154.872,N,07802.357,W,192636.382,V*34
$GPRMC,192637.382,V,4154.871,N,07802.356,W,36.3,1.45,060518,,E*49
$GPGGA,192638.382,4154.871,N,07802.356,W,0,00,,,M,,M,,*58
$GPGLL,4154.871,N,07802.356,W,192639.382,V*39
$GPRMC,192640.382,V,4154.869,N,07802.354,W,94.1,1.48,060518,,E*45
$GPGGA,192641.382,4154.869,N,07802.354,W,0,00,,,M,,M,,*5D
$GPGLL,4154.869,N,07802.354,W,192642.382,V*3E
$GPRMC,192643.382,V,4154.868,N,07802.353,W,57.1,1.50,060518,,E*46
$GPGGA,192644.382,4154.868,N,07802.353,W,0,00,,,M,,M,,*5E
$GPGLL,4154.868,N,07802.353,W,192645.382,V*3F
$GPRMC,192646.382,V,4154.867,N,07802.352,W,61.7,1.49,060518,,E*46
$GPGGA,192647.382,4154.867,N,07802.352,W,0,00,,,M,,M,,*53
$GPGLL,4154.867,N,07802.352,W,192648.382,V*3C
$GPRMC,192649.382,V,4154.865,N,07802.351,W,72.5,1.58,060518,,E*48
$GPGGA,192650.382,4154.865,N,07802.351,W,0,00,,,M,,M,,*54
$GPGLL,4154.865,N,07802.351,W,192651.382,V*35
$GPRMC,192652.382,V,4154.864,N,07802.349,W,51.9,1.50,060518,,E*4F
$GPGGA,192653.382,4154.864,N,07802.349,W,0,00,,,M,,M,,*5F
$GPGLL,4154.864,N,07802.349,W,192654.382,V*38
